{"last_updated":1606156275,"ttl":60,"data":{"stations":[{"station_id":"44437","name":"Kurfürstendamm","short_name":"1640","lat":52.504157,"lon":13.335328,"region_id":"362","capacity":8},{"station_id":"72228","name":"S Halensee","short_name":"1670","lat":52.496986,"lon":13.29121,"region_id":"362","capacity":5},{"station_id":"72229","name":"Joachim-Friedrich-Str. / KuDamm","short_name":"1669","lat":52.498323,"lon":13.296157,"region_id":"362","capacity":5},{"station_id":"72238","name":"Albrecht-Achilles-Straße","short_name":"1672","lat":52.499137,"lon":13.303743,"region_id":"362","capacity":5},{"station_id":"72263","name":"Karlsruher Str. / Aspria  ","short_name":"1671","lat":52.500614,"lon":13.2944011,"region_id":"362","capacity":8},{"station_id":"86224","name":"Platz der Luftbrücke","short_name":"1800","lat":52.484518,"lon":13.385526,"region_id":"362","capacity":12},{"station_id":"127606","name":"Mauerpark","short_name":"1534","lat":52.54080179053557,"lon":13.404886722564697,"region_id":"362","capacity":18},{"station_id":"1993866","name":"Frankfurter Allee/Gürtelstraße","short_name":"1893","lat":52.51334,"lon":13.477181,"region_id":"362","capacity":8},{"station_id":"1993898","name":"Möllendorffstr./Rathaus","short_name":"1892","lat":52.515903,"lon":13.479364,"region_id":"362","capacity":8},{"station_id":"1994200","name":"S Nöldnerplatz","short_name":"1890","lat":52.502813,"lon":13.48485,"region_id":"362","capacity":15},{"station_id":"1994229","name":"U Magdalenenstraße","short_name":"1894","lat":52.512446,"lon":13.488618,"region_id":"362","capacity":9},{"station_id":"1994268","name":"S+U Lichtenberg","short_name":"1891","lat":52.509627,"lon":13.49787,"region_id":"362","capacity":10},{"station_id":"3138973","name":"Verwaltungsstandort Lichtenberg","short_name":"1897","lat":52.50860098685075,"lon":13.525511026382446,"region_id":"362","capacity":8},{"station_id":"3139100","name":"Hauptbahnhof/Europaplatz","short_name":"1191","lat":52.52589887963126,"lon":13.369701504707336,"region_id":"362","capacity":14},{"station_id":"3139408","name":"Gendarmenmarkt","short_name":"1203","lat":52.51414136276015,"lon":13.393449783325195,"region_id":"362","capacity":20},{"station_id":"3164655","name":"Knesebeckstraße","short_name":"1643","lat":52.500015,"lon":13.321258,"region_id":"362","capacity":12},{"station_id":"3164667","name":"Kantstraße","short_name":"1644","lat":52.505247,"lon":13.327885,"region_id":"362","capacity":12},{"station_id":"3164678","name":"Schiller Theater","short_name":"1646","lat":52.512023,"lon":13.317568,"region_id":"362","capacity":8},{"station_id":"3164690","name":"S Messe Nord/ICC","short_name":"1647","lat":52.506585,"lon":13.282371,"region_id":"362","capacity":20},{"station_id":"3164703","name":"U Berliner Straße","short_name":"1649","lat":52.487182,"lon":13.331541,"region_id":"362","capacity":9},{"station_id":"3164708","name":"U Güntzelstraße","short_name":"1650","lat":52.490641,"lon":13.330647,"region_id":"362","capacity":18},{"station_id":"3164714","name":"U Hohenzollernplatz","short_name":"1651","lat":52.493896,"lon":13.324143,"region_id":"362","capacity":15},{"station_id":"3164735","name":"U Blissestraße","short_name":"1652","lat":52.48671,"lon":13.322675,"region_id":"362","capacity":8},{"station_id":"3164743","name":"U Fehrbelliner Platz","short_name":"1653","lat":52.490558,"lon":13.31333,"region_id":"362","capacity":15},{"station_id":"3164772","name":"U Konstanzer Straße","short_name":"1656","lat":52.494009,"lon":13.309832,"region_id":"362","capacity":10},{"station_id":"3164783","name":"S+U Zoologischer Garten","short_name":"1657","lat":52.5072884324783,"lon":13.333963751792908,"region_id":"362","capacity":20},{"station_id":"3164787","name":"S Charlottenburg","short_name":"1654","lat":52.505249,"lon":13.30296,"region_id":"362","capacity":11},{"station_id":"3164793","name":"Str. des 17. Juni","short_name":"1659","lat":52.513071,"lon":13.326504,"region_id":"362","capacity":16},{"station_id":"3164797","name":"Potsdamer Platz","short_name":"1219","lat":52.509929826594956,"lon":13.376144170761108,"region_id":"362","capacity":10},{"station_id":"3164804","name":"Lennéstraße","short_name":"1220","lat":52.51206608,"lon":13.37661143,"region_id":"362","capacity":22},{"station_id":"3164805","name":"Ernst-Reuter-Platz","short_name":"1660","lat":52.513434,"lon":13.322788,"region_id":"362","capacity":15},{"station_id":"3164810","name":"U Potsdamer Platz","short_name":"1246","lat":52.509809024642095,"lon":13.379384279251099,"region_id":"362","capacity":15},{"station_id":"3164811","name":"Uhlandstraße","short_name":"1663","lat":52.502861,"lon":13.325082,"region_id":"362","capacity":16},{"station_id":"3164817","name":"Aquarium","short_name":"1222","lat":52.50538159,"lon":13.34051927,"region_id":"362","capacity":22},{"station_id":"3164825","name":"Wilmersdorfer Straße","short_name":"1666","lat":52.508826,"lon":13.306448,"region_id":"362","capacity":9},{"station_id":"3164847","name":"S Tiergarten","short_name":"1226","lat":52.51372833,"lon":13.33668477,"region_id":"362","capacity":14},{"station_id":"3164854","name":"S Nordbahnhof","short_name":"1227","lat":52.53190484,"lon":13.38796963,"region_id":"362","capacity":15},{"station_id":"3164859","name":"Bergstraße","short_name":"1228","lat":52.53080992,"lon":13.39477224,"region_id":"362","capacity":8},{"station_id":"3164879","name":"Tucholskystraße","short_name":"1229","lat":52.52808555,"lon":13.39267953,"region_id":"362","capacity":20},{"station_id":"3164891","name":"Weinbergspark","short_name":"1231","lat":52.53249555,"lon":13.3993345,"region_id":"362","capacity":12},{"station_id":"3164896","name":"U Bernauer Straße","short_name":"1232","lat":52.53668284,"lon":13.39713183,"region_id":"362","capacity":20},{"station_id":"3164901","name":"Arkonaplatz","short_name":"1233","lat":52.53747286,"lon":13.40161162,"region_id":"362","capacity":18},{"station_id":"3165048","name":"S Hackescher Markt","short_name":"1235","lat":52.52232494,"lon":13.4010843,"region_id":"362","capacity":10},{"station_id":"3165062","name":"Memhardstraße","short_name":"1237","lat":52.523849211438055,"lon":13.411227464675903,"region_id":"362","capacity":12},{"station_id":"3165072","name":"S+U Alexanderplatz (Dircksenstraße)","short_name":"1239","lat":52.52209566,"lon":13.41072726,"region_id":"362","capacity":13},{"station_id":"3165077","name":"S+U Alexanderplatz (Ecke Alexanderstraße)","short_name":"1240","lat":52.52053952,"lon":13.41494503,"region_id":"362","capacity":21},{"station_id":"3165089","name":"U Schillingstraße","short_name":"1241","lat":52.51988995,"lon":13.42210651,"region_id":"362","capacity":10},{"station_id":"3165110","name":"S+U Jannowitzbrücke","short_name":"1243","lat":52.51532641,"lon":13.41756286,"region_id":"362","capacity":14},{"station_id":"3165114","name":"U Hausvogteiplatz","short_name":"1244","lat":52.51291714,"lon":13.39697964,"region_id":"362","capacity":16},{"station_id":"3165122","name":"Breite Straße","short_name":"1245","lat":52.51576946,"lon":13.40294596,"region_id":"362","capacity":20},{"station_id":"3165136","name":"S+U Brandenburger Tor","short_name":"1247","lat":52.51623067,"lon":13.38111172,"region_id":"362","capacity":14},{"station_id":"3165145","name":"Friedrichstadtpalast","short_name":"1248","lat":52.52406462692415,"lon":13.387436270713806,"region_id":"362","capacity":10},{"station_id":"3165152","name":"Neue Hochstraße","short_name":"1250","lat":52.54244808,"lon":13.37550665,"region_id":"362","capacity":14},{"station_id":"3165164","name":"S Gesundbrunnen","short_name":"1252","lat":52.5491272052606,"lon":13.387457728385924,"region_id":"362","capacity":15},{"station_id":"3165186","name":"Antwerpener Straße","short_name":"1255","lat":52.54626507,"lon":13.35240969,"region_id":"362","capacity":15},{"station_id":"3165191","name":"S Wedding","short_name":"1256","lat":52.54228408,"lon":13.36548667,"region_id":"362","capacity":12},{"station_id":"3165204","name":"Virchowstraße","short_name":"1531","lat":52.52892098658897,"lon":13.43854308128357,"region_id":"362","capacity":14},{"station_id":"3165207","name":"U Eberswalder Straße","short_name":"1532","lat":52.54288981718868,"lon":13.411699533462524,"region_id":"362","capacity":14},{"station_id":"3165214","name":"Helmholtzplatz","short_name":"1533","lat":52.54272949,"lon":13.4187001,"region_id":"362","capacity":18},{"station_id":"3165228","name":"Danziger Straße / Prenzlauer Allee","short_name":"1538","lat":52.53913782319016,"lon":13.42503547668457,"region_id":"362","capacity":10},{"station_id":"3165258","name":"Hufelandstraße","short_name":"1536","lat":52.53117216,"lon":13.43363778,"region_id":"362","capacity":20},{"station_id":"3165327","name":"Prenzlauer Allee","short_name":"1537","lat":52.528408613763474,"lon":13.416693806648254,"region_id":"362","capacity":18},{"station_id":"3165367","name":"Am Wasserturm","short_name":"1539","lat":52.534595850144775,"lon":13.41902196407318,"region_id":"362","capacity":18},{"station_id":"3167161","name":"U Karl-Marx-Straße","short_name":"1580","lat":52.473502,"lon":13.440874,"region_id":"362","capacity":9},{"station_id":"3167178","name":"Sonnenallee","short_name":"1581","lat":52.484653,"lon":13.433832,"region_id":"362","capacity":5},{"station_id":"3167191","name":"S+U Hermannstraße","short_name":"1582","lat":52.467995,"lon":13.430847,"region_id":"362","capacity":10},{"station_id":"3167198","name":"U Leinestraße","short_name":"1583","lat":52.472737,"lon":13.428618,"region_id":"362","capacity":15},{"station_id":"3167222","name":"Herrfurthplatz","short_name":"1584","lat":52.4772259,"lon":13.42297956,"region_id":"362","capacity":10},{"station_id":"3167232","name":"S Neukölln","short_name":"1585","lat":52.469951,"lon":13.441477,"region_id":"362","capacity":8},{"station_id":"3167254","name":"S Sonnenallee","short_name":"1586","lat":52.474241,"lon":13.455552,"region_id":"362","capacity":10},{"station_id":"3167259","name":"Schönstedtstraße","short_name":"1587","lat":52.481708656083626,"lon":13.435361981391907,"region_id":"362","capacity":10},{"station_id":"3167279","name":"Pannierstraße","short_name":"1588","lat":52.487263,"lon":13.431263,"region_id":"362","capacity":10},{"station_id":"3167314","name":"Maybachufer","short_name":"1589","lat":52.48959903,"lon":13.43906266,"region_id":"362","capacity":12},{"station_id":"3167319","name":"Hobrechtstraße","short_name":"1590","lat":52.49181208,"lon":13.42594654,"region_id":"362","capacity":10},{"station_id":"3167585","name":"Schwedterstraße","short_name":"1234","lat":52.53528922,"lon":13.40660874,"region_id":"362","capacity":16},{"station_id":"3167661","name":"Platz der Vereinten Nationen","short_name":"1463","lat":52.52349997499625,"lon":13.433071374893188,"region_id":"362","capacity":9},{"station_id":"3167675","name":"Landsberger Allee","short_name":"1462","lat":52.526464,"lon":13.446953,"region_id":"362","capacity":16},{"station_id":"3167679","name":"Petersburger Straße","short_name":"1461","lat":52.521851,"lon":13.451117,"region_id":"362","capacity":9},{"station_id":"3167688","name":"Schleidenplatz","short_name":"1460","lat":52.515727,"lon":13.472426,"region_id":"362","capacity":16},{"station_id":"3167695","name":"U Frankfurter Tor","short_name":"1459","lat":52.515632,"lon":13.453413,"region_id":"362","capacity":16},{"station_id":"3167701","name":"Helsingforser Platz","short_name":"1458","lat":52.507848,"lon":13.449569,"region_id":"362","capacity":12},{"station_id":"3167706","name":"Warschauer Str.","short_name":"1456","lat":52.50337665738117,"lon":13.444991111755371,"region_id":"362","capacity":12},{"station_id":"3171221","name":"Stralauer Allee/Coca Cola","short_name":"1457","lat":52.500794,"lon":13.452464,"region_id":"362","capacity":8},{"station_id":"3173597","name":"Danziger Straße / Lychener Straße","short_name":"1535","lat":52.540922507281394,"lon":13.41454803943634,"region_id":"362","capacity":20},{"station_id":"3173656","name":"Rudi-Dutschke-Straße","short_name":"1443","lat":52.507236,"lon":13.398167,"region_id":"362","capacity":12},{"station_id":"3173681","name":"Am Friedrichshain","short_name":"1441","lat":52.52782935,"lon":13.42485554,"region_id":"362","capacity":17},{"station_id":"3173692","name":"S Anhalter Bahnhof","short_name":"1442","lat":52.504490144666576,"lon":13.382023572921753,"region_id":"362","capacity":10},{"station_id":"3173722","name":"Blücherplatz","short_name":"1446","lat":52.49670568,"lon":13.391349,"region_id":"362","capacity":18},{"station_id":"3173734","name":"Obentrautstraße","short_name":"1447","lat":52.497192,"lon":13.380079,"region_id":"362","capacity":8},{"station_id":"3173779","name":"Mehringdamm","short_name":"1448","lat":52.490071,"lon":13.386773,"region_id":"362","capacity":14},{"station_id":"3173794","name":"Katzbachstraße","short_name":"1449","lat":52.487904,"lon":13.376718,"region_id":"362","capacity":15},{"station_id":"3173808","name":"Marheinekeplatz","short_name":"1450","lat":52.488976,"lon":13.394571,"region_id":"362","capacity":8},{"station_id":"3173815","name":"U Südstern","short_name":"1451","lat":52.4896010424634,"lon":13.407976627349854,"region_id":"362","capacity":15},{"station_id":"3173821","name":"U Hermannplatz/Hasenheide","short_name":"1454","lat":52.487122,"lon":13.422333,"region_id":"362","capacity":8},{"station_id":"3173860","name":"U Potsdamer Platz / Linkstraße ","short_name":"1221","lat":52.50807531679524,"lon":13.376052975654602,"region_id":"362","capacity":18},{"station_id":"3482245","name":"Westfälische Straße","short_name":"1674","lat":52.49607,"lon":13.295705,"region_id":"362","capacity":5},{"station_id":"3482301","name":"U Schönleinstraße","short_name":"1470","lat":52.492721,"lon":13.422074,"region_id":"362","capacity":6},{"station_id":"3482374","name":"Schlüterstraße","short_name":"1664","lat":52.501951,"lon":13.317018,"region_id":"362","capacity":8},{"station_id":"3482417","name":"U Görlitzer Bahnhof","short_name":"1471","lat":52.499013,"lon":13.426178,"region_id":"362","capacity":10},{"station_id":"3482458","name":"Wrangelstraße","short_name":"1472","lat":52.502323,"lon":13.432466,"region_id":"362","capacity":13},{"station_id":"3482504","name":"Wühlischstraße","short_name":"1473","lat":52.507251,"lon":13.467077,"region_id":"362","capacity":12},{"station_id":"3482550","name":"S Ostkreuz","short_name":"1474","lat":52.5045554509631,"lon":13.467607498168944,"region_id":"362","capacity":8},{"station_id":"3482586","name":"Wilhelmstraße/Robinenwäldchen","short_name":"1430","lat":52.507076199856115,"lon":13.38582158088684,"region_id":"362","capacity":26},{"station_id":"3482626","name":"U Hallesches Tor","short_name":"1436","lat":52.497474,"lon":13.392295,"region_id":"362","capacity":7},{"station_id":"3482666","name":"U Kochstraße","short_name":"1438","lat":52.505204,"lon":13.390837,"region_id":"362","capacity":9},{"station_id":"3483415","name":"Oranienplatz","short_name":"1445","lat":52.50195,"lon":13.416246,"region_id":"362","capacity":14},{"station_id":"3483583","name":"Baerwaldstraße","short_name":"1452","lat":52.495353,"lon":13.404831,"region_id":"362","capacity":13},{"station_id":"3483650","name":"Grimmstraße","short_name":"1453","lat":52.494567,"lon":13.415278,"region_id":"362","capacity":12},{"station_id":"3483726","name":"Schönleinstraße","short_name":"1466","lat":52.491846,"lon":13.420875,"region_id":"362","capacity":10},{"station_id":"3483818","name":"Wiener Straße","short_name":"1455","lat":52.497809,"lon":13.431698,"region_id":"362","capacity":18},{"station_id":"3483855","name":"Boxhagener Straße","short_name":"1469","lat":52.51204,"lon":13.461872,"region_id":"362","capacity":11},{"station_id":"3483917","name":"U Gleisdreieck","short_name":"1467","lat":52.500348,"lon":13.374248,"region_id":"362","capacity":14},{"station_id":"3730736","name":"Rathaus Friedrichshain-Kreuzberg","short_name":"1475","lat":52.49364142230671,"lon":13.385655283927917,"region_id":"362","capacity":20},{"station_id":"3775199","name":"Potsdamer Straße","short_name":"1803","lat":52.498186,"lon":13.362336,"region_id":"362","capacity":9},{"station_id":"3823563","name":"Merseburger Straße","short_name":"1805","lat":52.488525,"lon":13.352451,"region_id":"362","capacity":4},{"station_id":"3835278","name":"U Moritzplatz","short_name":"1444","lat":52.504049,"lon":13.410793,"region_id":"362","capacity":10},{"station_id":"3928218","name":"Fraenkelufer","short_name":"1434","lat":52.496227,"lon":13.419697,"region_id":"362","capacity":8},{"station_id":"3928228","name":"Nettelbeckplatz","short_name":"1253","lat":52.54411908,"lon":13.36942466,"region_id":"362","capacity":10},{"station_id":"3928306","name":"S Landsberger Allee","short_name":"1541","lat":52.528998,"lon":13.456997,"region_id":"362","capacity":5},{"station_id":"3928318","name":"S Greifswalder Straße","short_name":"1542","lat":52.540367,"lon":13.437471,"region_id":"362","capacity":10},{"station_id":"3928345","name":"Martin-Luther-Straße","short_name":"1804","lat":52.494602,"lon":13.346799,"region_id":"362","capacity":14},{"station_id":"3928380","name":"Rathaus Schöneberg","short_name":"1806","lat":52.48542962228744,"lon":13.344000577926636,"region_id":"362","capacity":5},{"station_id":"3937584","name":"Ansbacher Straße","short_name":"1801","lat":52.499498,"lon":13.34101,"region_id":"362","capacity":13},{"station_id":"3937607","name":"Nollendorfplatz","short_name":"1802","lat":52.498955,"lon":13.354408,"region_id":"362","capacity":16},{"station_id":"3992565","name":"Friedrichstraße","short_name":"1202","lat":52.51373983,"lon":13.38908323,"region_id":"362","capacity":20},{"station_id":"3992644","name":"U Mohrenstraße","short_name":"1208","lat":52.51185608314311,"lon":13.384410738945006,"region_id":"362","capacity":12},{"station_id":"4537194","name":"Gewobag","short_name":"1257","lat":52.523942,"lon":13.346522,"region_id":"362","capacity":18},{"station_id":"4538956","name":"Max-Schmeling-Halle","short_name":"1547","lat":52.54538879351857,"lon":13.40381920337677,"region_id":"362","capacity":10},{"station_id":"4616834","name":"Virchow Klinikum (Corona-Standort)","short_name":"9961","lat":52.542716906253276,"lon":13.348238468170164,"region_id":"362","capacity":7},{"station_id":"4685973","name":"U- Boddinstr.","short_name":"1591","lat":52.48032342233942,"lon":13.424348831176758,"region_id":"362","capacity":10},{"station_id":"4824253","name":"U Senefelder Platz","short_name":"1543","lat":52.532852,"lon":13.41236,"region_id":"362","capacity":10},{"station_id":"5123206","name":"U- Weberwiese","short_name":"1439","lat":52.51661586009508,"lon":13.44325304031372,"region_id":"362","capacity":7},{"station_id":"5301024","name":"Karl-Marx Allee","short_name":"1465","lat":52.517298117833434,"lon":13.441311120986938,"region_id":"362","capacity":16},{"station_id":"5314804","name":"U Prinzenstraße","short_name":"1437","lat":52.497411,"lon":13.405658,"region_id":"362","capacity":12},{"station_id":"5605673","name":"Siegessäule","short_name":"1194","lat":52.51407125,"lon":13.34887183,"region_id":"362","capacity":12},{"station_id":"5955878","name":"U-Stadtmitte","short_name":"1209","lat":52.50942053,"lon":13.39027414,"region_id":"362","capacity":15},{"station_id":"5984677","name":"Ackerstr.","short_name":"1196","lat":52.53540834965746,"lon":13.390365242958069,"region_id":"362","capacity":20},{"station_id":"6021742","name":"Große Hamburger Str.","short_name":"1198","lat":52.52712276009474,"lon":13.398052453994751,"region_id":"362","capacity":13},{"station_id":"6078188","name":"Gormannstraße","short_name":"1200","lat":52.52602616,"lon":13.40395336,"region_id":"362","capacity":20},{"station_id":"6087393","name":"Koppenstraße","short_name":"1435","lat":52.51487,"lon":13.435484,"region_id":"362","capacity":10},{"station_id":"6105492","name":"Martin-Gropius-Bau","short_name":"1207","lat":52.50728516736879,"lon":13.382227420806885,"region_id":"362","capacity":24},{"station_id":"6108069","name":"S-Ostbahnhof","short_name":"1464","lat":52.50982208432867,"lon":13.433468341827393,"region_id":"362","capacity":13},{"station_id":"6108164","name":"Anklamerstr./Fehrberllinerstr.","short_name":"1264","lat":52.534980891948685,"lon":13.399457931518553,"region_id":"362","capacity":6},{"station_id":"6108230","name":"Swinemünderstr.","short_name":"1251","lat":52.54379024803229,"lon":13.396968841552734,"region_id":"362","capacity":15},{"station_id":"6108612","name":"Friedrichstr./Besselstr.","short_name":"1431","lat":52.50410157019618,"lon":13.39108943939209,"region_id":"362","capacity":12},{"station_id":"6108646","name":"Potsdamer Str. / Eichhornstr.","short_name":"1259","lat":52.50895687170428,"lon":13.371686339378357,"region_id":"362","capacity":6},{"station_id":"6154661","name":"Straßburger Straße/Belforter Straße","short_name":"1549","lat":52.53276848707456,"lon":13.416935205459595,"region_id":"362","capacity":10},{"station_id":"6223780","name":"Lützowplatz","short_name":"1258","lat":52.504114631578695,"lon":13.352733850479126,"region_id":"362","capacity":11},{"station_id":"6223853","name":"Cantianstr.","short_name":"1546","lat":52.54654688704471,"lon":13.41004729270935,"region_id":"362","capacity":5},{"station_id":"6223922","name":"Rykestr.","short_name":"1551","lat":52.53627304145948,"lon":13.420228958129883,"region_id":"362","capacity":5},{"station_id":"6224025","name":"Mehringdamm/Barutherstr.","short_name":"1432","lat":52.49419339364215,"lon":13.38880956172943,"region_id":"362","capacity":8},{"station_id":"6270308","name":"Reuterplatz","short_name":"1594","lat":52.48999,"lon":13.429107,"region_id":"362","capacity":5},{"station_id":"6270335","name":"Sonnenallee/Reuterstraße","short_name":"1595","lat":52.486772,"lon":13.42872,"region_id":"362","capacity":10},{"station_id":"6270351","name":"Wildenbruchplatz","short_name":"1599","lat":52.48512581507352,"lon":13.44449758529663,"region_id":"362","capacity":5},{"station_id":"6270368","name":"Am Tempelhofer Feld","short_name":"1601","lat":52.476736,"lon":13.418464,"region_id":"362","capacity":5},{"station_id":"6270376","name":"Richardplatz","short_name":"1606","lat":52.473732,"lon":13.444457,"region_id":"362","capacity":5},{"station_id":"6270392","name":"Werbellinstraße/Falkstraße","short_name":"1613","lat":52.477742,"lon":13.428787,"region_id":"362","capacity":5},{"station_id":"6270403","name":"Wildenbruchstraße","short_name":"1597","lat":52.486957,"lon":13.447256,"region_id":"362","capacity":10},{"station_id":"6302518","name":"Liberdastraße / Maybachufer","short_name":"1592","lat":52.492601,"lon":13.430375,"region_id":"362","capacity":5},{"station_id":"6302530","name":"Pannierstraße/Pflügerstraße","short_name":"1593","lat":52.489755,"lon":13.433902,"region_id":"362","capacity":5},{"station_id":"6302554","name":"Unstrutstraße","short_name":"1607","lat":52.470946,"lon":13.448026,"region_id":"362","capacity":14},{"station_id":"6302565","name":"Sonnenallee/Treptower Straße","short_name":"1608","lat":52.47755,"lon":13.448826,"region_id":"362","capacity":7},{"station_id":"6302579","name":"Sonnenallee/Innstraße","short_name":"1609","lat":52.480588,"lon":13.442753,"region_id":"362","capacity":10},{"station_id":"6302589","name":"Hermannstraße/Briesestraße","short_name":"1614","lat":52.476789,"lon":13.426652,"region_id":"362","capacity":15},{"station_id":"6302595","name":"Sasarsteig","short_name":"1615","lat":52.482364,"lon":13.427536,"region_id":"362","capacity":8},{"station_id":"6302609","name":"Greifswalder Straße/ Danziger Straße","short_name":"1556","lat":52.53623124,"lon":13.43228515,"region_id":"362","capacity":10},{"station_id":"6302621","name":"S Prenzlauer Allee","short_name":"1559","lat":52.5450943719,"lon":13.4273391583,"region_id":"362","capacity":10},{"station_id":"6654007","name":"U Märkisches Museum","short_name":"1205","lat":52.51196708518486,"lon":13.408507704734802,"region_id":"362","capacity":12},{"station_id":"7006624","name":"Volksbühne","short_name":"1199","lat":52.526065329377914,"lon":13.411366939544678,"region_id":"362","capacity":14},{"station_id":"7097731","name":"Platz vor dem Neuen Tor","short_name":"1192","lat":52.52858484458168,"lon":13.378890752792358,"region_id":"362","capacity":22},{"station_id":"8176567","name":"S Friedrichsfelde Ost","short_name":"1896","lat":52.51364,"lon":13.519987,"region_id":"362","capacity":8},{"station_id":"8658692","name":"S+U Friedrichstraße","short_name":"1211","lat":52.5195702,"lon":13.38585467,"region_id":"362","capacity":14},{"station_id":"9187629","name":"Hauptstraße/Emma-Ihrer-Straße ","short_name":"1870","lat":52.498994272202694,"lon":13.480353355407713,"region_id":"362","capacity":10},{"station_id":"9187682","name":"S Rummelsburg","short_name":"1899","lat":52.501619837095845,"lon":13.477317094802856,"region_id":"362","capacity":10},{"station_id":"9187761","name":"Ruschestraße ","short_name":"1872","lat":52.5195174224445,"lon":13.4858086332679,"region_id":"362","capacity":10},{"station_id":"9187809","name":"Storkower Straße/Paul-Junius-Straße","short_name":"1871","lat":52.522797617834,"lon":13.4732760116458,"region_id":"362","capacity":9},{"station_id":"9187841","name":"Weißenseer Weg/Landsberger Allee","short_name":"1898","lat":52.53278,"lon":13.47582,"region_id":"362","capacity":10},{"station_id":"9284200","name":"Am Köllnischen Park","short_name":"1206","lat":52.51329985,"lon":13.41551071,"region_id":"362","capacity":9},{"station_id":"9449369","name":"U-Samariterstr.","short_name":"1476","lat":52.515203,"lon":13.462885,"region_id":"362","capacity":9},{"station_id":"9557479","name":"Luisenstraße","short_name":"1193","lat":52.52275005,"lon":13.37946005,"region_id":"362","capacity":22},{"station_id":"9570347","name":"Mühlenbergcenter","short_name":"1557","lat":52.5427423943467,"lon":13.4431487694383,"region_id":"362","capacity":4},{"station_id":"9570363","name":"Danziger Straße/Winsstraße","short_name":"1552","lat":52.5375467993543,"lon":13.4284257888794,"region_id":"362","capacity":10},{"station_id":"9591687","name":"Wisbyer Str./Lewaldstr.","short_name":"1562","lat":52.5526965041093,"lon":13.4210557490587,"region_id":"362","capacity":10},{"station_id":"9591844","name":"Kniprodestraße/Storkower Straße ","short_name":"1555","lat":52.537455235218,"lon":13.4493621066213,"region_id":"362","capacity":10},{"station_id":"9677626","name":"Geschwister Scholl Str.","short_name":"1213","lat":52.52036651448786,"lon":13.392012119293213,"region_id":"362","capacity":36},{"station_id":"9696778","name":"Wienerstr./ Glogauer Str.","short_name":"1483","lat":52.495018,"lon":13.438551,"region_id":"362","capacity":10},{"station_id":"9696823","name":"U Schlesisches Tor","short_name":"1485","lat":52.500167,"lon":13.44111,"region_id":"362","capacity":20},{"station_id":"9696843","name":"Paul-Lincke-Ufer/Liegnitzer Straße","short_name":"1482","lat":52.492584,"lon":13.433613,"region_id":"362","capacity":7},{"station_id":"9716224","name":"Straßmannstraße","short_name":"1513","lat":52.521557,"lon":13.447131,"region_id":"362","capacity":5},{"station_id":"9716269","name":"Jungstraße/Scharnweberstraße","short_name":"1511","lat":52.51255,"lon":13.466978,"region_id":"362","capacity":5},{"station_id":"9716292","name":"Wühlischstraße/Holteistraße","short_name":"1506","lat":52.50759,"lon":13.465178,"region_id":"362","capacity":5},{"station_id":"9716339","name":"Mühlenstraße/Edith-Kiss-Straße","short_name":"1514","lat":52.50567870407718,"lon":13.438993692398071,"region_id":"362","capacity":6},{"station_id":"9716358","name":"Koppenstraße/Münchebergerstraße","short_name":"1503","lat":52.513164,"lon":13.434378,"region_id":"362","capacity":5},{"station_id":"9716542","name":"Donaustraße","short_name":"1603","lat":52.4797051170201,"lon":13.4400417655706,"region_id":"362","capacity":8},{"station_id":"9716628","name":"Bayernring","short_name":"1817","lat":52.483121,"lon":13.37998577,"region_id":"362","capacity":10},{"station_id":"9716798","name":"Mariannenplatz","short_name":"1494","lat":52.502038,"lon":13.425198,"region_id":"362","capacity":7},{"station_id":"9716849","name":"Zeughofstraße (Lausitzer Park)","short_name":"1495","lat":52.499785,"lon":13.433427,"region_id":"362","capacity":10},{"station_id":"9785845","name":"Markgrafenstraße/Lindenstraße","short_name":"1490","lat":52.503448496121706,"lon":13.395144939422607,"region_id":"362","capacity":7},{"station_id":"9785901","name":"Columbiadamm","short_name":"1600","lat":52.4822203484369,"lon":13.4087155759335,"region_id":"362","capacity":5},{"station_id":"9786070","name":"Karl-Marx-Straße/Delbrückstraße","short_name":"1605","lat":52.4653854881351,"lon":13.4423454478383,"region_id":"362","capacity":5},{"station_id":"9786126","name":"S Köllnische Heide","short_name":"1610","lat":52.4688212759732,"lon":13.4671910852194,"region_id":"362","capacity":10},{"station_id":"10321394","name":"Torgauer Straße/Cherusker Straße","short_name":"1830","lat":52.48014679,"lon":13.35883554,"region_id":"362","capacity":10},{"station_id":"10321421","name":"Barbarossastraße/ Speyerer Straße","short_name":"1836","lat":52.49240252,"lon":13.34374677,"region_id":"362","capacity":8},{"station_id":"10321437","name":"Bayreuther Straße","short_name":"1839","lat":52.50294235704049,"lon":13.34414541721344,"region_id":"362","capacity":8},{"station_id":"10321452","name":"Winterfeldtstraße/Frobenstraße","short_name":"1842","lat":52.496406,"lon":13.358936,"region_id":"362","capacity":8},{"station_id":"10321496","name":"Kulturforum","short_name":"1332","lat":52.508232038960294,"lon":13.367207050323486,"region_id":"362","capacity":5},{"station_id":"10438240","name":"S Treptower Park","short_name":"1404","lat":52.493897,"lon":13.4611430383352,"region_id":"362","capacity":5},{"station_id":"10438266","name":"Brachvogelstraße","short_name":"1500","lat":52.496215,"lon":13.399009,"region_id":"362","capacity":10},{"station_id":"10438307","name":"Schinkestraße","short_name":"1596","lat":52.4944367160838,"lon":13.4246626496315,"region_id":"362","capacity":10},{"station_id":"10438346","name":"Selkestraße/Schierker Straße","short_name":"1604","lat":52.47073013535263,"lon":13.436815738677979,"region_id":"362","capacity":5},{"station_id":"10438376","name":"Münsterlandplatz","short_name":"1874","lat":52.50362,"lon":13.49491,"region_id":"362","capacity":10},{"station_id":"10438405","name":"Rüdigerstraße/Volkerstraße","short_name":"1877","lat":52.51516,"lon":13.50469,"region_id":"362","capacity":5},{"station_id":"10438464","name":"Rudolf-Seiffert-Straße","short_name":"1880","lat":52.525368,"lon":13.467222,"region_id":"362","capacity":5},{"station_id":"10456899","name":"Karl-Kunger-Straße/Plesserstraße","short_name":"1402","lat":52.4890314558015,"lon":13.4511930493407,"region_id":"362","capacity":5},{"station_id":"10456931","name":"Schmollerplatz","short_name":"1400","lat":52.490201,"lon":13.4451064471645,"region_id":"362","capacity":16},{"station_id":"10456956","name":"U Tierpark","short_name":"1876","lat":52.49668,"lon":13.52377,"region_id":"362","capacity":10},{"station_id":"10457023","name":"Anton-Saefkow-Platz","short_name":"1881","lat":52.527782009571766,"lon":13.468599915504456,"region_id":"362","capacity":5},{"station_id":"10807184","name":"Klingelhöferstr.","short_name":"1189","lat":52.50701419,"lon":13.35225524,"region_id":"362","capacity":13},{"station_id":"10934453","name":"Andreasstraße","short_name":"1502","lat":52.515181,"lon":13.432277,"region_id":"362","capacity":5},{"station_id":"13022931","name":"Schleiermacherstr./Blücherstr","short_name":"1499","lat":52.49367408352533,"lon":13.399441838264465,"region_id":"362","capacity":9},{"station_id":"13047235","name":"Rochowstr. / Corinthstr.","short_name":"1516","lat":52.501032037682705,"lon":13.459153175354004,"region_id":"362","capacity":5},{"station_id":"13156813","name":"Bundeswehrkrankenhaus","short_name":"1215","lat":52.53475608,"lon":13.36965166,"region_id":"362","capacity":15},{"station_id":"13412053","name":"Klausener Platz","short_name":"1717","lat":52.51794772181512,"lon":13.292486071586609,"region_id":"362","capacity":5},{"station_id":"13412161","name":"Morsestr./Carnotstr.","short_name":"1756","lat":52.52285045310845,"lon":13.322124481201172,"region_id":"362","capacity":8},{"station_id":"13412230","name":"Goethestr./Knesebeckstr.","short_name":"1726","lat":52.50862710693799,"lon":13.322703838348389,"region_id":"362","capacity":5},{"station_id":"13412323","name":"S-Savignyplatz","short_name":"1662","lat":52.504937490853756,"lon":13.322210311889648,"region_id":"362","capacity":6},{"station_id":"13412391","name":"Mommsenstr./Bleibtreustr.","short_name":"1777","lat":52.502978276780325,"lon":13.31940472126007,"region_id":"362","capacity":5},{"station_id":"13412509","name":"Lietzenburger Str. / Rankestr.","short_name":"1681","lat":52.5003299336392,"lon":13.331576585769653,"region_id":"362","capacity":5},{"station_id":"13518798","name":"Ludwigkirchplatz/Pfalzburger Straße","short_name":"1678","lat":52.49775327900285,"lon":13.322848677635193,"region_id":"362","capacity":5},{"station_id":"13518991","name":"Fasanenstraße","short_name":"1658","lat":52.51001797916183,"lon":13.329977989196777,"region_id":"362","capacity":5},{"station_id":"13593781","name":"Jelbi-Station U Prinzenstr","short_name":"1508","lat":52.498575,"lon":13.407739,"region_id":"362","capacity":6},{"station_id":"15203935","name":"Sickingenstr.","short_name":"1328","lat":52.530830093848465,"lon":13.316620588302612,"region_id":"362","capacity":5},{"station_id":"15204152","name":"Osram-Höfe","short_name":"1265","lat":52.552933,"lon":13.357457,"region_id":"362","capacity":5},{"station_id":"15204337","name":"U Reinickendorfer Str.","short_name":"1302","lat":52.53945757083013,"lon":13.370758295059204,"region_id":"362","capacity":7},{"station_id":"15204529","name":"Lübeckerstr. / Perlebergerstr.","short_name":"1322","lat":52.5300505517426,"lon":13.3455974981189,"region_id":"362","capacity":5},{"station_id":"15204736","name":"Rathaus Tiergarten","short_name":"1329","lat":52.52613713103466,"lon":13.339054584503174,"region_id":"362","capacity":10},{"station_id":"15204901","name":"Rathenower Str. / Turmstr.","short_name":"1313","lat":52.5271651873392,"lon":13.354847431182861,"region_id":"362","capacity":8},{"station_id":"15205091","name":"Paulstr. / Alt-Moabit","short_name":"1311","lat":52.5231548156913,"lon":13.357009626925,"region_id":"362","capacity":10},{"station_id":"15205365","name":"Pankstr. / Böttgerstr.","short_name":"1372","lat":52.55010905641593,"lon":13.378204107284544,"region_id":"362","capacity":10},{"station_id":"15780594","name":"Pohlstraße","short_name":"1301","lat":52.50054873005541,"lon":13.3663272857666,"region_id":"362","capacity":10},{"station_id":"16333934","name":"Jelbi-Station S+U Schönhauser Allee","short_name":"1550","lat":52.54914677725901,"lon":13.416838645935059,"region_id":"362","capacity":5},{"station_id":"19439371","name":"Haus der Kulturen","short_name":"1317","lat":52.51927627894419,"lon":13.364353179931639,"region_id":"362","capacity":7},{"station_id":"19788113","name":"Quitzowstr.","short_name":"1314","lat":52.5351334393567,"lon":13.3494129404426,"region_id":"362","capacity":5},{"station_id":"20077327","name":"Lichtenberger Straße/Singerstraße","short_name":"1501","lat":52.516096814815846,"lon":13.426226377487183,"region_id":"362","capacity":10},{"station_id":"20265865","name":"Torstraße/Gormannstraße","short_name":"1305","lat":52.529684639451574,"lon":13.405197858810425,"region_id":"362","capacity":5},{"station_id":"20550322","name":"Kosmos","short_name":"1521","lat":52.5164905879357,"lon":13.4494851529598,"region_id":"362","capacity":12},{"station_id":"20550381","name":"Forckenbeckplatz","short_name":"1523","lat":52.51886824970244,"lon":13.46246838569641,"region_id":"362","capacity":10},{"station_id":"20690027","name":"Reichspietschufer","short_name":"1238","lat":52.507229,"lon":13.355705,"region_id":"362","capacity":5},{"station_id":"20690178","name":"Keithstraße","short_name":"1230","lat":52.504499,"lon":13.346573,"region_id":"362","capacity":8},{"station_id":"20720679","name":"Metzer Straße/Prenzlauer Allee","short_name":"1548","lat":52.5306879,"lon":13.4186934,"region_id":"362","capacity":10},{"station_id":"20766548","name":"Pankstraße/Wiesenstraße","short_name":"1371","lat":52.5474285,"lon":13.3743186,"region_id":"362","capacity":5},{"station_id":"20767734","name":"Jagowstraße/Levetzowstraße","short_name":"1323","lat":52.5216122,"lon":13.333739452064,"region_id":"362","capacity":5},{"station_id":"20813022","name":"Am Reichstag","short_name":"1375","lat":52.5178449,"lon":13.3716505,"region_id":"362","capacity":10},{"station_id":"20867527","name":"Brunnenstraße/Rügener Straße","short_name":"1365","lat":52.5444152,"lon":13.3914301,"region_id":"362","capacity":10},{"station_id":"21077612","name":"Jelbi-Station U Jakob-Kaiser-Platz","short_name":"1782","lat":52.536442,"lon":13.29502,"region_id":"362","capacity":6},{"station_id":"21607119","name":"Wiclefstraße/Bredowstraße","short_name":"1319","lat":52.5300424,"lon":13.3392175,"region_id":"362","capacity":5},{"station_id":"21607183","name":"Ufnaustraße/Huttenstraße","short_name":"1327","lat":52.5288606,"lon":13.3173042,"region_id":"362","capacity":5},{"station_id":"21732591","name":"Maxstr.","short_name":"1263","lat":52.550496,"lon":13.362655,"region_id":"362","capacity":5},{"station_id":"21823642","name":"Hauptbahnhof (Washingtonplatz)","short_name":"1376","lat":52.5242594,"lon":13.3686031,"region_id":"362","capacity":8},{"station_id":"21823742","name":"Botschaft der nordischen Länder","short_name":"1224","lat":52.50851,"lon":13.349234,"region_id":"362","capacity":5},{"station_id":"21878628","name":"Tegelerstraße/Lynarstraße","short_name":"1261","lat":52.539696,"lon":13.359184,"region_id":"362","capacity":5},{"station_id":"21950434","name":"Calvinstr.","short_name":"1316","lat":52.5208406,"lon":13.3510367,"region_id":"362","capacity":10},{"station_id":"21950631","name":"Jasmunder Straße/Usedomer Straße","short_name":"1364","lat":52.5394827,"lon":13.3884324,"region_id":"362","capacity":5},{"station_id":"22082973","name":"Sportplatz Emdener Straße","short_name":"1320","lat":52.5304958,"lon":13.333955,"region_id":"362","capacity":5},{"station_id":"23113661","name":"Lützowstraße","short_name":"1357","lat":52.5027854,"lon":13.3675162,"region_id":"362","capacity":10},{"station_id":"23157995","name":"Grüntaler Straße / Bellermannstraße","short_name":"1368","lat":52.5529069,"lon":13.3873538,"region_id":"362","capacity":10},{"station_id":"23251486","name":"Bernauer Straße/Wolliner Straße","short_name":"1378","lat":52.5395418,"lon":13.4016436,"region_id":"362","capacity":5},{"station_id":"23618581","name":"Schwimmbad Seestraße","short_name":"1381","lat":52.5566332,"lon":13.3633849,"region_id":"362","capacity":10},{"station_id":"23632950","name":"Sprengelkiez","short_name":"1262","lat":52.543012,"lon":13.356195,"region_id":"362","capacity":5},{"station_id":"23819354","name":"Sony Center","short_name":"1260","lat":52.511128,"lon":13.371843,"region_id":"362","capacity":10},{"station_id":"23945380","name":"Swinemünder Straße/Ramlerstraße","short_name":"1366","lat":52.5472595,"lon":13.3942964,"region_id":"362","capacity":10},{"station_id":"23945522","name":"Stauffenbergstraße/Tiergartenstraße","short_name":"1359","lat":52.5099757,"lon":13.3647109,"region_id":"362","capacity":5},{"station_id":"24250089","name":"Gleisdreieck","short_name":"1639","lat":52.503126,"lon":13.373514,"region_id":"362","capacity":5},{"station_id":"24340868","name":"Lehmbruckstraße","short_name":"1626","lat":52.5014945,"lon":13.4520946,"region_id":"362","capacity":5},{"station_id":"24530932","name":"Großbeerenstraße","short_name":"1637","lat":52.499681,"lon":13.38547,"region_id":"362","capacity":5},{"station_id":"24570605","name":"S Feuerbachstraße","short_name":"1424","lat":52.4636267,"lon":13.331879,"region_id":"362","capacity":8},{"station_id":"24608815","name":"Albrechtstraße/ Klingsorstraße","short_name":"1421","lat":52.4531245,"lon":13.3307109,"region_id":"362","capacity":5},{"station_id":"24880907","name":"Jelbi-Station Landsberger Allee/Petersburger Str.","short_name":"1558","lat":52.527147,"lon":13.44941,"region_id":"362","capacity":5},{"station_id":"25111108","name":"Holzmarktstraße","short_name":"1622","lat":52.5105277,"lon":13.4290987,"region_id":"362","capacity":10},{"station_id":"25115569","name":"Weinbergsweg","short_name":"1304","lat":52.530604,"lon":13.402103,"region_id":"362","capacity":10},{"station_id":"25115653","name":"Müllerstraße/Triftstraße","short_name":"1384","lat":52.5447159,"lon":13.3611624,"region_id":"362","capacity":5},{"station_id":"25115748","name":"Ritterstraße/Alte Jakobstraße","short_name":"1394","lat":52.5047183,"lon":13.3995951,"region_id":"362","capacity":5},{"station_id":"25115822","name":"Reichenberger Straße/Glogauer Straße","short_name":"1397","lat":52.493449,"lon":13.437588,"region_id":"362","capacity":6},{"station_id":"25115910","name":"Eichenstraße/Martin-Hoffmann-Straße","short_name":"1405","lat":52.496123,"lon":13.4543772,"region_id":"362","capacity":5},{"station_id":"25115971","name":"Köpenicker Landstraße/Baumschulenstraße","short_name":"1406","lat":52.4694563,"lon":13.4912659,"region_id":"362","capacity":8},{"station_id":"25115991","name":"S Plänterwald","short_name":"1407","lat":52.4788683,"lon":13.4738745,"region_id":"362","capacity":7},{"station_id":"25116277","name":"Köpenicker Straße/Eisenbahnstraße","short_name":"1486","lat":52.504658,"lon":13.434994,"region_id":"362","capacity":10},{"station_id":"25116360","name":"Rüdersdorfer Straße /Straße der Pariser Kommune","short_name":"1623","lat":52.5141846,"lon":13.4388784,"region_id":"362","capacity":10},{"station_id":"25116465","name":"Ohlauer Straße/ Reichenberger Straße","short_name":"1631","lat":52.49607,"lon":13.430718,"region_id":"362","capacity":5},{"station_id":"26661525","name":"Jelbi-Station U Ullsteinstraße","short_name":"1197","lat":52.453054,"lon":13.38555,"region_id":"362","capacity":20},{"station_id":"27915279","name":"Durstexpress HQ","short_name":"1488","lat":52.498804859716294,"lon":13.458836674690247,"region_id":"362","capacity":5},{"station_id":"28049528","name":"U Richard-Wagner-Platz","short_name":"1689","lat":52.517245,"lon":13.306106,"region_id":"362","capacity":10},{"station_id":"28662973","name":"Bergstraße/Filandastraße","short_name":"1422","lat":52.4584253,"lon":13.3318971,"region_id":"362","capacity":10},{"station_id":"29768289","name":"Jelbi Station S-Jannowitzbrücke/Holzmarktstr.","short_name":"1210","lat":52.513833,"lon":13.422333,"region_id":"362","capacity":20},{"station_id":"30522765","name":"EDEKA Stresemannstraße","short_name":"1204","lat":52.50210313294799,"lon":13.385725021362303,"region_id":"362","capacity":6},{"station_id":"32183254","name":"Tieckstraße","short_name":"1195","lat":52.52944640729129,"lon":13.388128280639648,"region_id":"362","capacity":11},{"station_id":"32282615","name":"Jelbi Station U Nollendorfplatz","short_name":"1212","lat":52.49915,"lon":13.35357,"region_id":"362","capacity":5},{"station_id":"32343972","name":"S+U Heidelberger Platz","short_name":"1648","lat":52.480474,"lon":13.312324,"region_id":"362","capacity":14},{"station_id":"36431854","name":"Jelbi Station Breitenbachplatz","short_name":"1190","lat":52.466797,"lon":13.310333,"region_id":"362","capacity":8},{"station_id":"37024604","name":"Jägerstraße/Friedrichstraße","short_name":"1214","lat":52.513884,"lon":13.389093,"region_id":"362","capacity":5},{"station_id":"37024675","name":"Taubenstraßen/Friedrichstraße","short_name":"1216","lat":52.513007,"lon":13.389435,"region_id":"362","capacity":5},{"station_id":"37024755","name":"Mohrenstraße/Friedrichstraße","short_name":"1236","lat":52.512149,"lon":13.38918,"region_id":"362","capacity":5},{"station_id":"37024815","name":"Kronenstraße/Friedrichstraße","short_name":"1242","lat":52.511204,"lon":13.390011,"region_id":"362","capacity":5},{"station_id":"38554142","name":"Tuchollaplatz - Lichtenberg","short_name":"1249","lat":52.50315460962276,"lon":13.480385541915894,"region_id":"362"},{"station_id":"39329851","name":"Bürgeramt Lichtenberg","short_name":"1254","lat":52.54509192518729,"lon":13.499568700790405,"region_id":"362"}]}}